{
    "type": "FeatureCollection",
    "features": [
      {
        "type": "Feature",
        "geometry": {
          "type": "Point",
          "coordinates": [-99.0841608,19.4208037]
        },
        "properties": {
          "title": "Bellas Artes Ciudad de Mexico",
          "info": "Bellas Artes"
        }
      },
      {
        "type": "Feature",
        "geometry": {
          "type": "Point",
          "coordinates": [-99.150528,19.302861]
        },
        "properties": {
          "place": "Estadio Azteca Ciudad de Mexico",
          "description": "Estadio Azteca" 
        }
      },

          {
        "type": "Feature",
        "geometry": {
          "type": "Point",
          "coordinates": [-99.174598,19.393664]
        },
        "properties": {
          "title": "World Trade Center Ciudad de Mexico",
          "info": "World Trade Center"
        }
      },
      {
        "type": "Feature",
        "geometry": {
          "type": "Point",
          "coordinates": [-99.14056,19.43393]
        },
        "properties": {
          "place": "Torre Latino Americana Ciudad de Mexico",
          "description": "Torre Latino Americana"
        }
      },
       {
        "type": "Feature",
        "geometry": {
          "type": "Point",
          "coordinates": [-99.17545,19.49758]
        },
        "properties": {
          "place": "Arena Ciudad de Mexico",
          "description": "Arena"
        }
      },
        {
        "type": "Feature",
        "geometry": {
          "type": "Point",
          "coordinates": [-99.095613,19.405114]
        },
        "properties": {
          "title": "Foro Sol Ciudad de Mexico",
          "info": "Foro Sol"
        }
      }
     
    ]
}

